[{"name":"삼화사랑약국","address":"(63323) 제주특별자치도 제주시 건주로 43 ","tel":"064-755-3545","open":"08:30 ~ 21:00","sido":"jeju","sigungu":"jeju","lng":"126.580987069057","lat":"33.515618997731"},{"name":"구좌약국","address":"(63361) 제주특별자치도 제주시 구좌읍 구좌로 40 ","tel":"064-782-8875","open":"08:00 ~ 20:00","sido":"jeju","sigungu":"jeju","lng":"126.855667474488","lat":"33.5232790282259"},{"name":"메디팜감초당약국","address":"(63361) 제주특별자치도 제주시 구좌읍 구좌로 42 메디팜감초당약국","tel":"064-783-2360","open":"08:30 ~ 19:00","sido":"jeju","sigungu":"jeju","lng":"126.855869740474","lat":"33.5232786326305"},{"name":"자연약국","address":"(63132) 제주특별자치도 제주시 노연로 90 ","tel":"0647121596","open":"09:00 ~ 22:30","sido":"jeju","sigungu":"jeju","lng":"126.489715841975","lat":"33.4857262153656"},{"name":"으뜸약국","address":"(63083) 제주특별자치도 제주시 노형로 376 101호, 으뜸약국","tel":"064-749-0003","open":"09:00 ~ 22:30","sido":"jeju","sigungu":"jeju","lng":"126.476126253122","lat":"33.483414723833"},{"name":"제주토마토약국","address":"(63127) 제주특별자치도 제주시 도령로 73 펠리체상가 101호","tel":"064-712-4003","open":"08:30 ~ 21:00","sido":"jeju","sigungu":"jeju","lng":"126.485948322561","lat":"33.4901161837273"},{"name":"낙산약국","address":"(63127) 제주특별자치도 제주시 도령로 87 낙산약국","tel":"064-744-2688","open":"08:00 ~ 22:00","sido":"jeju","sigungu":"jeju","lng":"126.487275468846","lat":"33.4908688308155"},{"name":"수약국","address":"(63275) 제주특별자치도 제주시 동광로 124 ","tel":"064-759-0587","open":"09:00 ~ 19:00","sido":"jeju","sigungu":"jeju","lng":"126.540293885402","lat":"33.5069867270985"},{"name":"서사라튼튼약국","address":"(63182) 제주특별자치도 제주시 서사로 137 1층","tel":"064-752-7365","open":"08:30 ~ 19:00","sido":"jeju","sigungu":"jeju","lng":"126.520055246037","lat":"33.5001420911967"},{"name":"에이스팜플러스약국","address":"(63124) 제주특별자치도 제주시 신대로14길 56 에이스팜플러스약국","tel":"064-711-5553","open":"08:00 ~ 익일04:00","sido":"jeju","sigungu":"jeju","lng":"126.490481235438","lat":"33.487995336379"},{"name":"부부온누리약국","address":"(63123) 제주특별자치도 제주시 신대로16길 41 부부온누리약국","tel":"064-742-5252","open":"17:00 ~ 익일03:00","sido":"jeju","sigungu":"jeju","lng":"126.492139331414","lat":"33.4867636252058"},{"name":"태평양약국","address":"(63123) 제주특별자치도 제주시 연동7길 30 ","tel":"064-744-3236","open":"16:00 ~ 21:00","sido":"jeju","sigungu":"jeju","lng":"126.490528109697","lat":"33.4872302576653"},{"name":"하나약국","address":"(63136) 제주특별자치도 제주시 연북로 99 ","tel":"064-748-2800","open":"09:00 ~ 23:00","sido":"jeju","sigungu":"jeju","lng":"126.492005938839","lat":"33.4821139255537"},{"name":"열린약국","address":"(63097) 제주특별자치도 제주시 월랑로10길 34 열린약국","tel":"064-748-1551","open":"08:00 ~ 21:00","sido":"jeju","sigungu":"jeju","lng":"126.478761417262","lat":"33.490928248696"},{"name":"신한당약국","address":"(63333) 제주특별자치도 제주시 조천읍 신북로 530 신한당약국","tel":"064-783-8087","open":"08:30 ~ 21:00","sido":"jeju","sigungu":"jeju","lng":"126.666361762931","lat":"33.5415018463703"},{"name":"정민당약국","address":"(63194) 제주특별자치도 제주시 중앙로 127 정민당약국","tel":"064-722-3337","open":"09:00 ~ 19:00","sido":"jeju","sigungu":"jeju","lng":"126.524800210254","lat":"33.5073114444632"},{"name":"우성약국","address":"(63255) 제주특별자치도 제주시 천수로 53 우성약국","tel":"064-722-6019","open":"08:30 ~ 21:00","sido":"jeju","sigungu":"jeju","lng":"126.542229192159","lat":"33.5041423370009"},{"name":"탑동보룡약국","address":"(63165) 제주특별자치도 제주시 탑동로 24 1층","tel":"064-726-4949","open":"08:00 ~ 23:00","sido":"jeju","sigungu":"jeju","lng":"126.522460881414","lat":"33.517560202795"},{"name":"시원한 약국","address":"(63323) 제주특별자치도 제주시 화삼북로 68 1층 시원한 약국","tel":"064-753-8085","open":"09:00 ~ 21:00","sido":"jeju","sigungu":"jeju","lng":"126.580288525295","lat":"33.5170666641725"},{"name":"은우약국","address":"(63087) 제주특별자치도 제주시 1100로 3283 ","tel":"064-748-7542","open":"09:00 ~ 20:00","sido":"jeju","sigungu":"jeju","lng":"126.481797861927","lat":"33.4794043922342"},{"name":"새봄약국","address":"(63083) 제주특별자치도 제주시 1100로 3333 새봄약국","tel":"064-712-0086","open":"08:30 ~ 19:30","sido":"jeju","sigungu":"jeju","lng":"126.480144305382","lat":"33.4836219692901"},{"name":"별약국","address":"(63323) 제주특별자치도 제주시 건주로 27 1층 102호","tel":"064--","open":"08:30 ~ 21:00","sido":"jeju","sigungu":"jeju","lng":"126.5811410102","lat":"33.5170882126091"},{"name":"설약국","address":"(63323) 제주특별자치도 제주시 건주로 31 1층 설약국","tel":"064-723-7599","open":"09:00 ~ 21:00","sido":"jeju","sigungu":"jeju","lng":"126.580982878284","lat":"33.5167785217559"},{"name":"강약국","address":"(63259) 제주특별자치도 제주시 고마로 147 강약국","tel":"064-726-6366","open":"08:00 ~ 19:00","sido":"jeju","sigungu":"jeju","lng":"126.543469074284","lat":"33.5016641058548"},{"name":"메디칼약국","address":"(63259) 제주특별자치도 제주시 고마로 149 1층 메디칼약국","tel":"064-726-2200","open":"09:00 ~ 20:00","sido":"jeju","sigungu":"jeju","lng":"126.543570318192","lat":"33.5015046264362"},{"name":"정존약국","address":"(63093) 제주특별자치도 제주시 고사마루길 2 1층","tel":"010-9643-9890","open":"09:00 ~ 21:00","sido":"jeju","sigungu":"jeju","lng":"126.472234040441","lat":"33.4802908734374"},{"name":"제주공항약국","address":"(63115) 제주특별자치도 제주시 공항로 2 ","tel":"064-743-3213","open":"06:00 ~ 21:00","sido":"jeju","sigungu":"jeju","lng":"126.495951277797","lat":"33.5059364682672"},{"name":"대정약국","address":"(63085) 제주특별자치도 제주시 과원북4길 35 1층 대정약국","tel":"064-743-3734","open":"08:30 ~ 19:00","sido":"jeju","sigungu":"jeju","lng":"126.486371601557","lat":"33.4812622296803"},{"name":"인수당건재약국","address":"(63192) 제주특별자치도 제주시 관덕로 54-2 인수당건재약국","tel":"064-722-3030","open":"09:00 ~ 19:00","sido":"jeju","sigungu":"jeju","lng":"126.525041395467","lat":"33.5130047427775"},{"name":"유진약국","address":"(63192) 제주특별자치도 제주시 관덕로 60 1층 유진약국","tel":"064-753-7116","open":"08:30 ~ 21:00","sido":"jeju","sigungu":"jeju","lng":"126.525711640813","lat":"33.5129407733201"},{"name":"조일약국","address":"(63277) 제주특별자치도 제주시 관덕로 63 조일약국","tel":"064-757-2273","open":"08:30 ~ 19:30","sido":"jeju","sigungu":"jeju","lng":"126.526081549986","lat":"33.5132798345909"},{"name":"정성약국","address":"(63192) 제주특별자치도 제주시 관덕로 66 정성약국","tel":"064-702-2255","open":"08:30 ~ 19:30","sido":"jeju","sigungu":"jeju","lng":"126.526286786596","lat":"33.5128681419798"},{"name":"제일약국","address":"(63361) 제주특별자치도 제주시 구좌읍 구좌로 47 제일약국","tel":"064-783-2010","open":"08:30 ~ 19:00","sido":"jeju","sigungu":"jeju","lng":"126.856614176205","lat":"33.5233019464664"},{"name":"세화약국","address":"(63361) 제주특별자치도 제주시 구좌읍 세화10길 1 1층 세화약국","tel":"064-784-8442","open":"08:00 ~ 23:00","sido":"jeju","sigungu":"jeju","lng":"126.858782714682","lat":"33.5208355861818"},{"name":"남광약국","address":"(63230) 제주특별자치도 제주시 남광로2길 43 남광약국","tel":"064-757-6015","open":"09:00 ~ 19:00","sido":"jeju","sigungu":"jeju","lng":"126.540041851833","lat":"33.4892589358421"},{"name":"창신약국","address":"(63169) 제주특별자치도 제주시 남성로 143 ","tel":"064-758-8313","open":"09:00 ~ 21:00","sido":"jeju","sigungu":"jeju","lng":"126.520528850653","lat":"33.5092974205792"},{"name":"영제약국","address":"(63083) 제주특별자치도 제주시 노형8길 3 우학빌딩 1층","tel":"064-726-3090","open":"09:00 ~ 18:30","sido":"jeju","sigungu":"jeju","lng":"126.477797252714","lat":"33.4844444517438"},{"name":"예은온누리약국","address":"(63083) 제주특별자치도 제주시 노형8길 8 1층","tel":"064-747-1225","open":"08:30 ~ 22:00","sido":"jeju","sigungu":"jeju","lng":"126.477847039423","lat":"33.4840011684389"},{"name":"미소약국","address":"(63097) 제주특별자치도 제주시 노형동 1054-6 105호 미소약국","tel":"064-712-2928","open":"08:30 ~ 18:00","sido":"jeju","sigungu":"jeju","lng":"126.476574642264","lat":"33.488791366549"},{"name":"싱싱약국","address":"(63083) 제주특별자치도 제주시 노형로 386 싱싱약국","tel":"064-711-7242","open":"08:30 ~ 18:30","sido":"jeju","sigungu":"jeju","lng":"126.4769251227","lat":"33.4841515431711"},{"name":"노형타워약국","address":"(63099) 제주특별자치도 제주시 노형로 407 B102호","tel":"064-747-0828","open":"09:00 ~ 18:00","sido":"jeju","sigungu":"jeju","lng":"126.478301044424","lat":"33.485821410903"},{"name":"휴베이스 건강드림약국","address":"(63098) 제주특별자치도 제주시 도령로 1 건강드림약국","tel":"064-744-0369","open":"08:00 ~ 18:30","sido":"jeju","sigungu":"jeju","lng":"126.479321267482","lat":"33.486812673941"},{"name":"유성약국","address":"(63098) 제주특별자치도 제주시 도령로 5 유성약국","tel":"064-744-5477","open":"08:00 ~ 19:00","sido":"jeju","sigungu":"jeju","lng":"126.479932791957","lat":"33.486787562871"},{"name":"신한온누리약국","address":"(63129) 제주특별자치도 제주시 도령로 74 신한온누리약국","tel":"064-744-1783","open":"08:30 ~ 20:00","sido":"jeju","sigungu":"jeju","lng":"126.486332954052","lat":"33.4897415444847"},{"name":"명원약국","address":"(63275) 제주특별자치도 제주시 동광로 100 ","tel":"064-53-0660","open":"08:30 ~ 19:00","sido":"jeju","sigungu":"jeju","lng":"126.538443642564","lat":"33.5055019582814"},{"name":"인제약국","address":"(63275) 제주특별자치도 제주시 동광로 108-1 ","tel":"064-724-7276","open":"09:00 ~ 19:00","sido":"jeju","sigungu":"jeju","lng":"126.539148588153","lat":"33.5060460786907"},{"name":"인화온누리약국","address":"(63275) 제주특별자치도 제주시 동광로 110 ","tel":"064-724-7272","open":"08:30 ~ 19:00","sido":"jeju","sigungu":"jeju","lng":"126.539246511365","lat":"33.5061298401656"},{"name":"화신온누리약국","address":"(63253) 제주특별자치도 제주시 동광로 129 화신온누리약국","tel":"064-722-2944","open":"08:30 ~ 19:00","sido":"jeju","sigungu":"jeju","lng":"126.540376062933","lat":"33.5078710428623"},{"name":"고승아약국","address":"(63253) 제주특별자치도 제주시 동광로 131 고승아약국","tel":"064-726-6988","open":"08:30 ~ 20:00","sido":"jeju","sigungu":"jeju","lng":"126.540471800294","lat":"33.5079413615319"},{"name":"세브란스약국","address":"(63214) 제주특별자치도 제주시 동광로 90 세브란스약국","tel":"064-722-5711","open":"09:00 ~ 21:00","sido":"jeju","sigungu":"jeju","lng":"126.537739354044","lat":"33.5048156552258"},{"name":"보림약국","address":"(63278) 제주특별자치도 제주시 동문로 35 보림약국","tel":"064-722-3788","open":"08:00 ~ 21:00","sido":"jeju","sigungu":"jeju","lng":"126.530409934429","lat":"33.5131036478419"},{"name":"위생약국","address":"(63264) 제주특별자치도 제주시 동문로 40 위생약국","tel":"064-753-2630","open":"07:00 ~ 19:30","sido":"jeju","sigungu":"jeju","lng":"126.530841362093","lat":"33.5128965642625"},{"name":"조은약국","address":"(63266) 제주특별자치도 제주시 동문로20길 1 ","tel":"064-721-7271","open":"08:30 ~ 19:00","sido":"jeju","sigungu":"jeju","lng":"126.53663219695","lat":"33.5136308871107"},{"name":"옵티마힐링약국","address":"(63300) 제주특별자치도 제주시 동화로 28 ","tel":"--","open":"09:00 ~ 20:00","sido":"jeju","sigungu":"jeju","lng":"126.572794072486","lat":"33.5178427402212"},{"name":"그린약국","address":"(63300) 제주특별자치도 제주시 동화로 30 그린약국","tel":"064-727-1175","open":"08:30 ~ 19:30","sido":"jeju","sigungu":"jeju","lng":"126.5727900733","lat":"33.5176052471037"},{"name":"동의당온누리약국","address":"(63279) 제주특별자치도 제주시 만덕로 21 동의당온누리약국","tel":"064-758-2685","open":"09:00 ~ 20:00","sido":"jeju","sigungu":"jeju","lng":"126.532171968381","lat":"33.5147231699557"},{"name":"번영약국","address":"(63313) 제주특별자치도 제주시 번영로 500 1층 번영약국","tel":"064-900-4395","open":"08:30 ~ 18:30","sido":"jeju","sigungu":"jeju","lng":"126.594819609272","lat":"33.490149872474"},{"name":"한라프라자약국","address":"(63124) 제주특별자치도 제주시 삼무로 46 한라프라자약국","tel":"064-743-2098","open":"08:30 ~ 18:30","sido":"jeju","sigungu":"jeju","lng":"126.491545207446","lat":"33.4896484476898"},{"name":"동현약국","address":"(63327) 제주특별자치도 제주시 삼봉로 327 A동 102호","tel":"064-723-0490","open":"08:30 ~ 18:30","sido":"jeju","sigungu":"jeju","lng":"126.594219147406","lat":"33.4940793199306"},{"name":"온누리대우약국","address":"(63184) 제주특별자치도 제주시 서광로 171 ","tel":"064-753-3390","open":"08:30 ~ 21:30","sido":"jeju","sigungu":"jeju","lng":"126.514721990879","lat":"33.5002496144059"},{"name":"수성약국","address":"(63184) 제주특별자치도 제주시 서광로 173 수성약국","tel":"064-751-2526","open":"07:30 ~ 19:30","sido":"jeju","sigungu":"jeju","lng":"126.514947797042","lat":"33.5002443677642"},{"name":"감초당약국","address":"(63184) 제주특별자치도 제주시 서광로 181 ","tel":"064-722-4370","open":"09:00 ~ 18:30","sido":"jeju","sigungu":"jeju","lng":"126.51595244176","lat":"33.5002343219569"},{"name":"하나로약국","address":"(63183) 제주특별자치도 제주시 서광로 189 하나로약국","tel":"064-726-0282","open":"08:30 ~ 19:00","sido":"jeju","sigungu":"jeju","lng":"126.516653933658","lat":"33.5002243480074"},{"name":"우리약국","address":"(63183) 제주특별자치도 제주시 서광로 195 우리약국","tel":"064-758-1894","open":"08:00 ~ 20:30","sido":"jeju","sigungu":"jeju","lng":"126.517434116968","lat":"33.5001905139285"},{"name":"금호약국","address":"(63185) 제주특별자치도 제주시 서광로 202 ","tel":"064-752-3200","open":"08:00 ~ 20:30","sido":"jeju","sigungu":"jeju","lng":"126.517875241457","lat":"33.4997034782436"},{"name":"해약국","address":"(63182) 제주특별자치도 제주시 서광로 263 ","tel":"064-725-2283","open":"08:30 ~ 18:00","sido":"jeju","sigungu":"jeju","lng":"126.524595836648","lat":"33.5002241500889"},{"name":"성종약국","address":"(63182) 제주특별자치도 제주시 서광로 267 ","tel":"064-721-0224","open":"08:30 ~ 19:30","sido":"jeju","sigungu":"jeju","lng":"126.524944772172","lat":"33.5002353157767"},{"name":"만년약국","address":"(63200) 제주특별자치도 제주시 서광로 268 만년약국","tel":"064-726-8806","open":"08:00 ~ 19:00","sido":"jeju","sigungu":"jeju","lng":"126.525191367395","lat":"33.4997533682016"},{"name":"고운약국","address":"(63199) 제주특별자치도 제주시 서광로 273 ","tel":"064-723-1339","open":"09:00 ~ 19:00","sido":"jeju","sigungu":"jeju","lng":"126.525662002453","lat":"33.5004176607745"},{"name":"힐링약국","address":"(63207) 제주특별자치도 제주시 서광로 278 101","tel":"064-702-2332","open":"08:30 ~ 18:30","sido":"jeju","sigungu":"jeju","lat":0},{"name":"100세약국","address":"(63207) 제주특별자치도 제주시 서광로 300-1 ","tel":"064-702-0103","open":"09:00 ~ 21:30","sido":"jeju","sigungu":"jeju","lng":"126.528633948144","lat":"33.500391586513"},{"name":"영신온누리약국","address":"(63154) 제주특별자치도 제주시 서문로 68 영신온누리약국","tel":"064-722-0371","open":"08:30 ~ 20:00","sido":"jeju","sigungu":"jeju","lng":"126.518385714275","lat":"33.5117397203378"},{"name":"건강한약국","address":"(63186) 제주특별자치도 제주시 서사로 155 1층","tel":"064-722-2004","open":"08:00 ~ 20:00","sido":"jeju","sigungu":"jeju","lng":"126.520043633981","lat":"33.4984631916553"},{"name":"새우리약국","address":"(63172) 제주특별자치도 제주시 서사로 36 새우리약국","tel":"064-757-7675","open":"09:00 ~ 23:00","sido":"jeju","sigungu":"jeju","lng":"126.519651446053","lat":"33.509244975192"},{"name":"365약국","address":"(63113) 제주특별자치도 제주시 서해안로 161 ","tel":"0647113652","open":"08:00 ~ 20:00","sido":"jeju","sigungu":"jeju","lng":"126.466051763303","lat":"33.5040159739566"},{"name":"한라산약국","address":"(63127) 제주특별자치도 제주시 성신로 13-4 한라산약국","tel":"010-9066-5864","open":"09:00 ~ 18:00","sido":"jeju","sigungu":"jeju","lng":"126.485210416351","lat":"33.4909836070888"},{"name":"신제주대웅약국","address":"(63127) 제주특별자치도 제주시 성신로 13-8 신제주대웅약국","tel":"064-747-8811","open":"08:30 ~ 18:30","sido":"jeju","sigungu":"jeju","lng":"126.484844218554","lat":"33.490914736412"},{"name":"제주약국","address":"(63127) 제주특별자치도 제주시 성신로 13-8 103호","tel":"064-713-8575","open":"09:00 ~ 18:30","sido":"jeju","sigungu":"jeju","lng":"126.484844218554","lat":"33.490914736412"},{"name":"정약국","address":"(63099) 제주특별자치도 제주시 수덕1길 3 ","tel":"064-713-0033","open":"08:00 ~ 18:30","sido":"jeju","sigungu":"jeju","lng":"126.478276246833","lat":"33.4862425301571"},{"name":"밝은사랑약국","address":"(63102) 제주특별자치도 제주시 수덕로 41 1층","tel":"064-744-9952","open":"09:00 ~ 18:00","sido":"jeju","sigungu":"jeju","lng":"126.472784599759","lat":"33.4861483341127"},{"name":"하늘약국","address":"(63100) 제주특별자치도 제주시 수덕로 6 ","tel":"064-748-4001","open":"09:00 ~ 18:00","sido":"jeju","sigungu":"jeju","lng":"126.475307220929","lat":"33.4886649230919"},{"name":"오케이약국","address":"(63231) 제주특별자치도 제주시 승천로 74 ","tel":"--","open":"08:30 ~ 19:00","sido":"jeju","sigungu":"jeju","lng":"126.542579496739","lat":"33.4921926501796"},{"name":"에코약국","address":"(63227) 제주특별자치도 제주시 승천로 75 ","tel":"064-722-0059","open":"09:00 ~ 20:00","sido":"jeju","sigungu":"jeju","lng":"126.543176897454","lat":"33.4922384009257"},{"name":"새한온누리약국","address":"(63123) 제주특별자치도 제주시 신대로 128 새한온누리약국","tel":"064-742-1348","open":"09:00 ~ 22:00","sido":"jeju","sigungu":"jeju","lng":"126.496059583157","lat":"33.4858517995196"},{"name":"한결약국","address":"(63205) 제주특별자치도 제주시 신성로 78 1층","tel":"064-727-1210","open":"08:30 ~ 21:00","sido":"jeju","sigungu":"jeju","lng":"126.527805588365","lat":"33.4954440983053"},{"name":"아라약국","address":"(63043) 제주특별자치도 제주시 애월읍 애월로 120 아라약국","tel":"064-799-4460","open":"08:30 ~ 21:00","sido":"jeju","sigungu":"jeju","lng":"126.319970894671","lat":"33.4643785619656"},{"name":"하귀하나로약국","address":"(63054) 제주특별자치도 제주시 애월읍 일주서로 7136 하귀하나로약국","tel":"064-742-8434","open":"08:30 ~ 22:30","sido":"jeju","sigungu":"jeju","lng":"126.412159214346","lat":"33.4850611892862"},{"name":"동백약국","address":"(63054) 제주특별자치도 제주시 애월읍 하귀9길 1 103호","tel":"064-904-1102","open":"08:30 ~ 19:00","sido":"jeju","sigungu":"jeju","lng":"126.414969308735","lat":"33.4867393589107"},{"name":"곰온누리약국","address":"(63054) 제주특별자치도 제주시 애월읍 하귀9길 2 모닝시티 106호","tel":"064-747-6174","open":"09:00 ~ 18:00","sido":"jeju","sigungu":"jeju","lng":"126.414565502113","lat":"33.4864182898895"},{"name":"하귀약국","address":"(63051) 제주특별자치도 제주시 애월읍 하귀로 35 하귀약국","tel":"064-713-2927","open":"08:30 ~ 19:00","sido":"jeju","sigungu":"jeju","lng":"126.40098470745","lat":"33.4803467441823"},{"name":"송약국","address":"(63051) 제주특별자치도 제주시 애월읍 하귀로 77 송약국","tel":"064-712-8538","open":"08:00 ~ 21:30","sido":"jeju","sigungu":"jeju","lng":"126.405012921092","lat":"33.4817561259736"},{"name":"제주예스약국","address":"(63094) 제주특별자치도 제주시 억삼길 35-57 제주예스약국","tel":"064-744-5551","open":"09:00 ~ 22:00","sido":"jeju","sigungu":"jeju","lng":"126.471259738003","lat":"33.4917415285373"},{"name":"신세계약국","address":"(63133) 제주특별자치도 제주시 연동8길 7 1층 ","tel":"064-746-3983","open":"09:00 ~ 22:00","sido":"jeju","sigungu":"jeju","lng":"126.490807609442","lat":"33.4851414250848"},{"name":"뉴제주약국","address":"(63133) 제주특별자치도 제주시 연동8길 8 ","tel":"064-752-5244","open":"08:30 ~ 19:30","sido":"jeju","sigungu":"jeju","lng":"126.490514238975","lat":"33.4851337279057"},{"name":"스마트약국","address":"(63084) 제주특별자치도 제주시 연북로 1 1층 (노형동,롯데마트)","tel":"064-712-6706","open":"10:00 ~ 21:30","sido":"jeju","sigungu":"jeju","lng":"126.481834000763","lat":"33.4824421892687"},{"name":"신진팜약국","address":"(63085) 제주특별자치도 제주시 연북로 34 1층 신진팜약국","tel":"064-746-5452","open":"08:30 ~ 09:00","sido":"jeju","sigungu":"jeju","lng":"126.484952001108","lat":"33.4816683662675"},{"name":"굿모닝약국","address":"(63085) 제주특별자치도 제주시 연북로 40 굿모닝약국","tel":"064-711-8995","open":"09:00 ~ 19:00","sido":"jeju","sigungu":"jeju","lng":"126.485625199268","lat":"33.4816329345296"},{"name":"해모로약국","address":"(63204) 제주특별자치도 제주시 연삼로 305 ","tel":"0649017378","open":"10:00 ~ 20:00","sido":"jeju","sigungu":"jeju","lng":"126.525167130007","lat":"33.4923853689194"},{"name":"최약국","address":"(63260) 제주특별자치도 제주시 연삼로 548 1층 최약국","tel":"064-755-3566","open":"08:30 ~ 19:00","sido":"jeju","sigungu":"jeju","lng":"126.547453553136","lat":"33.5023973829354"},{"name":"영주약국","address":"(63227) 제주특별자치도 제주시 연신로 46 ","tel":"064-722-5593","open":"09:00 ~ 19:00","sido":"jeju","sigungu":"jeju","lng":"126.546270581436","lat":"33.4969993645896"},{"name":"한우리약국","address":"(63228) 제주특별자치도 제주시 연신로 51 ","tel":"064-723-8484","open":"08:30 ~ 19:00","sido":"jeju","sigungu":"jeju","lng":"126.54690529802","lat":"33.4968501292395"},{"name":"맘꽃약국","address":"(63145) 제주특별자치도 제주시 연오로 59 이룸프라자 101호 맘꽃약국","tel":"064-747-2966","open":"08:30 ~ 19:00","sido":"jeju","sigungu":"jeju","lng":"126.502057860304","lat":"33.4879308657759"},{"name":"동보약국","address":"(63192) 제주특별자치도 제주시 오현길 78 동보약국","tel":"064-757-5833","open":"07:00 ~ 20:00","sido":"jeju","sigungu":"jeju","lng":"126.525549123259","lat":"33.5117368883857"},{"name":"용담온누리약국","address":"(63157) 제주특별자치도 제주시 용담로 46 용담온누리약국","tel":"064-712-0259","open":"08:30 ~ 19:00","sido":"jeju","sigungu":"jeju","lng":"126.507652346153","lat":"33.5127685258347"},{"name":"우주약국","address":"(63156) 제주특별자치도 제주시 용담로 92 1층 우주약국","tel":"070-4111-6964","open":"08:30 ~ 19:30","sido":"jeju","sigungu":"jeju","lng":"126.512347253755","lat":"33.5119148080676"},{"name":"무등약국","address":"(63184) 제주특별자치도 제주시 용담일동 2824-15 1층 무등약국","tel":"064-722-5529","open":"08:30 ~ 18:30","sido":"jeju","sigungu":"jeju","lng":"126.513120207898","lat":"33.5012173198257"},{"name":"유명약국","address":"(63156) 제주특별자치도 제주시 용문로 163 유명약국","tel":"064-711-4587","open":"09:00 ~ 18:30","sido":"jeju","sigungu":"jeju","lng":"126.51081189938","lat":"33.5092782759611"},{"name":"가정온누리약국","address":"(63070) 제주특별자치도 제주시 우정로 57 가정온누리약국","tel":"064-711-5275","open":"08:30 ~ 21:00","sido":"jeju","sigungu":"jeju","lng":"126.43111337908","lat":"33.4876991586953"},{"name":"알로하약국","address":"(63070) 제주특별자치도 제주시 우정로15길 1 106호 알로하약국","tel":"064-723-9090","open":"09:00 ~ 20:30","sido":"jeju","sigungu":"jeju","lng":"126.431233598343","lat":"33.4861306755197"},{"name":"착한약국","address":"(63070) 제주특별자치도 제주시 우정로15길 5 102호","tel":"064-744-6314","open":"08:00 ~ 18:30","sido":"jeju","sigungu":"jeju","lng":"126.431727067918","lat":"33.4860933595521"},{"name":"우리들약국","address":"(63070) 제주특별자치도 제주시 우정로5길 5 우리들약국","tel":"064-712-6543","open":"08:00 ~ 19:30","sido":"jeju","sigungu":"jeju","lng":"126.431685213822","lat":"33.4904255714914"},{"name":"부원약국","address":"(63069) 제주특별자치도 제주시 우정로8길 2 1층","tel":"064-900-4338","open":"08:30 ~ 19:00","sido":"jeju","sigungu":"jeju","lng":"126.430679405636","lat":"33.4893639324779"},{"name":"큰곰약국","address":"(63069) 제주특별자치도 제주시 우평로 338 1층","tel":"--","open":"09:00 ~ 13:00","sido":"jeju","sigungu":"jeju","lng":"126.430534621471","lat":"33.4841944587667"},{"name":"생생약국","address":"(63082) 제주특별자치도 제주시 원노형남1길 1 1층","tel":"064-711-1788","open":"09:00 ~ 21:00","sido":"jeju","sigungu":"jeju","lng":"126.480730767311","lat":"33.484006612815"},{"name":"한라약국","address":"(63099) 제주특별자치도 제주시 월랑로 33 1층","tel":"064-712-7364","open":"09:00 ~ 19:00","sido":"jeju","sigungu":"jeju","lng":"126.47608257237","lat":"33.4885609141354"},{"name":"메디팜월랑약국","address":"(63100) 제주특별자치도 제주시 월랑로 39 동마빌딩1층 메디팜월랑약국","tel":"064-742-9770","open":"08:30 ~ 20:30","sido":"jeju","sigungu":"jeju","lng":"126.475614662141","lat":"33.4889462586235"},{"name":"세원약국","address":"(63099) 제주특별자치도 제주시 월랑로 5 세원약국","tel":"064-742-9090","open":"08:30 ~ 21:00","sido":"jeju","sigungu":"jeju","lng":"126.478263449417","lat":"33.4866900263728"},{"name":"행복나눔약국","address":"(63100) 제주특별자치도 제주시 월랑로 59 세흔빌딩 1층","tel":"064-747-7227","open":"08:30 ~ 20:00","sido":"jeju","sigungu":"jeju","lng":"126.474199468505","lat":"33.4902322419752"},{"name":"신산약국","address":"(63268) 제주특별자치도 제주시 일도이동 1027-5 신산약국","tel":"064-722-7290","open":"08:30 ~ 19:00","sido":"jeju","sigungu":"jeju","lng":"126.531367689696","lat":"33.5115367937515"},{"name":"온누리한솔약국","address":"(63292) 제주특별자치도 제주시 일주동로 181 온누리한솔약국","tel":"064-725-0270","open":"09:00 ~ 18:30","sido":"jeju","sigungu":"jeju","lng":"126.564818561283","lat":"33.5190270774341"},{"name":"화북약국","address":"(63289) 제주특별자치도 제주시 일주동로 199 ","tel":"064-756-1428","open":"08:30 ~ 21:00","sido":"jeju","sigungu":"jeju","lng":"126.566846605617","lat":"33.5190229158855"},{"name":"월마트약국","address":"(63288) 제주특별자치도 제주시 일주동로 229 ","tel":"064-748-1556","open":"09:00 ~ 20:00","sido":"jeju","sigungu":"jeju","lng":"126.569947757174","lat":"33.5194425930885"},{"name":"동화약국","address":"(63288) 제주특별자치도 제주시 일주동로 241 동화약국","tel":"064-723-6462","open":"09:00 ~ 18:00","sido":"jeju","sigungu":"jeju","lng":"126.570960870211","lat":"33.5198327989352"},{"name":"삼양약국","address":"(63321) 제주특별자치도 제주시 일주동로 366 1층","tel":"064-758-1734","open":"08:30 ~ 18:00","sido":"jeju","sigungu":"jeju","lng":"126.584080157623","lat":"33.5208841725461"},{"name":"삼화약국","address":"(63321) 제주특별자치도 제주시 일주동로 366 ","tel":"064-758-1734","open":"08:30 ~ 20:00","sido":"jeju","sigungu":"jeju","lng":"126.584080157623","lat":"33.5208841725461"},{"name":"삼양온누리약국","address":"(63318) 제주특별자치도 제주시 일주동로 393 1층","tel":"070-8900-4480","open":"09:00 ~ 20:00","sido":"jeju","sigungu":"jeju","lng":"126.58696097496","lat":"33.521537909651"},{"name":"한사랑약국","address":"(63331) 제주특별자치도 제주시 조천읍 신북로 217 한사랑약국","tel":"064-784-3336","open":"09:00 ~ 19:00","sido":"jeju","sigungu":"jeju","lng":"126.636033867269","lat":"33.5357738080624"},{"name":"조천약국","address":"(63331) 제주특별자치도 제주시 조천읍 신북로 226 조천약국","tel":"064-783-8989","open":"08:30 ~ 21:00","sido":"jeju","sigungu":"jeju","lng":"126.637179387123","lat":"33.5360014855524"},{"name":"영재약국","address":"(63333) 제주특별자치도 제주시 조천읍 신북로 510-1 영재약국","tel":"064-783-1959","open":"08:30 ~ 23:00","sido":"jeju","sigungu":"jeju","lng":"126.664236789984","lat":"33.5421838373358"},{"name":"나라약국","address":"(63333) 제주특별자치도 제주시 조천읍 신북로 523 나라약국","tel":"064-782-3700","open":"08:00 ~ 18:30","sido":"jeju","sigungu":"jeju","lng":"126.665971016422","lat":"33.5420394042026"},{"name":"옵티마대한약국","address":"(63333) 제주특별자치도 제주시 조천읍 조함해안로 488-6 옵티마대한약국","tel":"064-784-3432","open":"09:00 ~ 18:30","sido":"jeju","sigungu":"jeju","lng":"126.664635344258","lat":"33.542303837388"},{"name":"함덕하나로약국","address":"(63334) 제주특별자치도 제주시 조천읍 함와로 40 함덕하나로약국","tel":"064-784-8434","open":"08:00 ~ 19:00","sido":"jeju","sigungu":"jeju","lng":"126.674912222026","lat":"33.5365660075389"},{"name":"남문약국","address":"(63170) 제주특별자치도 제주시 중앙로 132 1층 남문약국","tel":"064-751-9967","open":"08:30 ~ 20:30","sido":"jeju","sigungu":"jeju","lng":"126.524698216331","lat":"33.5068721586305"},{"name":"연세익약국","address":"(63197) 제주특별자치도 제주시 중앙로 175 ","tel":"064-725-9454","open":"08:30 ~ 22:00","sido":"jeju","sigungu":"jeju","lng":"126.527366850279","lat":"33.503565682999"},{"name":"웅진약국","address":"(63197) 제주특별자치도 제주시 중앙로 195 웅진약국","tel":"064-723-7677","open":"09:00 ~ 18:00","sido":"jeju","sigungu":"jeju","lng":"126.528438943589","lat":"33.502000096441"},{"name":"늘좋은약국","address":"(63206) 제주특별자치도 제주시 중앙로 284 늘좋은약국","tel":"064-751-2277","open":"08:00 ~ 20:00","sido":"jeju","sigungu":"jeju","lng":"126.533002564798","lat":"33.4950673629048"},{"name":"주원약국","address":"(63222) 제주특별자치도 제주시 중앙로 318 주원약국","tel":"064-752-2321","open":"08:30 ~ 21:00","sido":"jeju","sigungu":"jeju","lng":"126.535272367644","lat":"33.4926491670383"},{"name":"베스트약국","address":"(63232) 제주특별자치도 제주시 중앙로 354 ","tel":"064-752-7525","open":"08:30 ~ 19:00","sido":"jeju","sigungu":"jeju","lng":"126.537715735683","lat":"33.4900853370456"},{"name":"더블유스토어 이도약국","address":"(63232) 제주특별자치도 제주시 중앙로 366 힐링타운1층","tel":"070-8900-3399","open":"09:00 ~ 07:30","sido":"jeju","sigungu":"jeju","lng":"126.538473449487","lat":"33.4892179424257"},{"name":"제주튼튼한 약국","address":"(63230) 제주특별자치도 제주시 중앙로 371 1층 제주튼튼한 약국 (이도2동 )","tel":"064-752-2526","open":"09:00 ~ 19:30","sido":"jeju","sigungu":"jeju","lng":"126.539431766652","lat":"33.4891743543604"},{"name":"민성약국","address":"(63247) 제주특별자치도 제주시 중앙로 543 1층","tel":"064-722-1010","open":"09:00 ~ 19:00","sido":"jeju","sigungu":"jeju","lng":"126.545746368652","lat":"33.4750146577237"},{"name":"킴스약국","address":"(63237) 제주특별자치도 제주시 중앙로 552 킴스약국","tel":"064-723-3507","open":"08:30 ~ 19:00","sido":"jeju","sigungu":"jeju","lng":"126.54535367091","lat":"33.4742347791693"},{"name":"광제약국","address":"(63192) 제주특별자치도 제주시 중앙로 61 일도이동 광제약국","tel":"064-722-6634","open":"09:30 ~ 21:00","sido":"jeju","sigungu":"jeju","lng":"126.52480539172","lat":"33.5126642987908"},{"name":"대학약국","address":"(63248) 제주특별자치도 제주시 중앙로 611 ","tel":"064-722-3033","open":"09:00 ~ 18:30","sido":"jeju","sigungu":"jeju","lng":"126.547362090731","lat":"33.4696720226435"},{"name":"건강일등약국","address":"(63241) 제주특별자치도 제주시 중앙로 616 ","tel":"064-727-8321","open":"09:00 ~ 21:00","sido":"jeju","sigungu":"jeju","lng":"126.547021236972","lat":"33.4687713436155"},{"name":"현대약국","address":"(63192) 제주특별자치도 제주시 중앙로 77 ","tel":"064-722-0392","open":"09:00 ~ 19:00","sido":"jeju","sigungu":"jeju","lng":"126.524560673505","lat":"33.5112411910527"},{"name":"동우약국","address":"(63192) 제주특별자치도 제주시 중앙로15길 2 동우약국","tel":"010-2693-0611","open":"08:30 ~ 18:30","sido":"jeju","sigungu":"jeju","lng":"126.524281501044","lat":"33.5105300265808"},{"name":"추자약국","address":"(63000) 제주특별자치도 제주시 추자면 추자로 20 추자약국","tel":"064-742-9958","open":"09:00 ~ 익일00:00","sido":"jeju","sigungu":"jeju","lng":"126.296964800114","lat":"33.9637380321474"},{"name":"마트약국","address":"(63165) 제주특별자치도 제주시 탑동로 38 1층","tel":"064-722-7044","open":"10:00 ~ 23:00","sido":"jeju","sigungu":"jeju","lng":"126.521177288784","lat":"33.5179748474968"},{"name":"장수약국","address":"(63008) 제주특별자치도 제주시 한경면 고산로 16 장수약국","tel":"064-772-5834","open":"08:30 ~ 18:30","sido":"jeju","sigungu":"jeju","lng":"126.179780740401","lat":"33.302409591532"},{"name":"새별약국","address":"(63013) 제주특별자치도 제주시 한림읍 동명북1길 11 1층 102호","tel":"--","open":"08:30 ~ 19:00","sido":"jeju","sigungu":"jeju","lng":"126.264335201423","lat":"33.4086706105879"},{"name":"현재약국","address":"(63032) 제주특별자치도 제주시 한림읍 한림로 650 현재약국","tel":"064-796-9333","open":"08:30 ~ 23:00","sido":"jeju","sigungu":"jeju","lng":"126.262828036388","lat":"33.4136857622942"},{"name":"중앙약국","address":"(63032) 제주특별자치도 제주시 한림읍 한림로 664 중앙약국","tel":"064-796-2051","open":"08:00 ~ 19:00","sido":"jeju","sigungu":"jeju","lng":"126.264059203941","lat":"33.4143607876119"},{"name":"동서약국","address":"(63030) 제주특별자치도 제주시 한림읍 한림로 682 동서약국","tel":"064-796-0333","open":"08:00 ~ 20:00","sido":"jeju","sigungu":"jeju","lng":"126.265313622355","lat":"33.4155325327961"},{"name":"태안약국","address":"(63029) 제주특별자치도 제주시 한림읍 한림중앙로 29 101호","tel":"064-796-8050","open":"08:30 ~ 18:30","sido":"jeju","sigungu":"jeju","lng":"126.265191013939","lat":"33.4121682539585"},{"name":"녹십자약국","address":"(63032) 제주특별자치도 제주시 한림읍 한림중앙로 4 녹십자약국","tel":"064-796-9001","open":"08:30 ~ 20:30","sido":"jeju","sigungu":"jeju","lng":"126.264581121556","lat":"33.4144663931644"},{"name":"은솔약국","address":"(63032) 제주특별자치도 제주시 한림읍 한림중앙로 46 은솔약국","tel":"064-796-7474","open":"08:30 ~ 18:00","sido":"jeju","sigungu":"jeju","lng":"126.265107178745","lat":"33.4105960192047"},{"name":"무지개약국","address":"(63303) 제주특별자치도 제주시 화삼로1길 14 무지개약국","tel":"064-723-0888","open":"08:30 ~ 19:00","sido":"jeju","sigungu":"jeju","lng":"126.575260663273","lat":"33.5147429829224"},{"name":"상아약국","address":"(63156) 제주특별자치도 제주시 흥운길 6 상아약국","tel":"064-711-3770","open":"09:00 ~ 18:30","sido":"jeju","sigungu":"jeju","lng":"126.511053843623","lat":"33.5096992819115"}]